<?xml version="1.0"?>
<markers><marker name="Brann&#xE1; - Alojzov" lat="50.150470" lng="17.018850" type="skala" popis="Oblast je tvo&#x159;ena &#x159;adou okrajov&#xFD;ch skal z krystalick&#xE9; b&#x159;idlice. Poskytuje nen&#xE1;ro&#x10D;n&#xE9; letn&#xED; i zimn&#xED; v&#xFD;stupy v pevn&#xE9; sk&#xE1;le." id="1"/><marker name="Kalafati&#x10D;ova plotna" lat="50.178590" lng="17.211210" type="skala" popis="Oblast je tvo&#x159;ena 15 metr&#x16F; vysokou plotnou ze svoru a poskytuje technick&#xE9; lezen&#xED; na t&#x159;en&#xED;. T&#x11B;&#x17E;&#x161;&#xED; cesty jsou ji&#x161;t&#x11B;ny fixn&#xED;m ji&#x161;t&#x11B;n&#xED;m. P&#x16F;vodn&#xED;ch 10 cest bylo vylezeno &#x10D;leny horolezeck&#xE9;ho odd&#xED;lu Lipov&#xE1; l&#xE1;zn&#x11B; v roce 1983." id="2"/><marker name="B&#x11B;l&#xE1; pod Prad&#x11B;dem" lat="50.130512" lng="17.200400" type="skala" popis="Skaln&#xED; oblast tvo&#x159;&#xED; skupina okrajov&#xFD;ch skal. Jsou tvo&#x159;eny krystalickou b&#x159;idlic&#xED; a svorem. Je v&#x11B;t&#x161;inou pevn&#xE1;, bohat&#x11B; &#x10D;len&#x11B;n&#xE1; a poskytuje lezen&#xED; p&#x159;edev&#x161;&#xED;m v kolm&#xFD;ch a p&#x159;evisl&#xFD;ch st&#x11B;n&#xE1;ch s n&#x11B;kolika p&#x159;evisy. N&#x11B;kter&#xE9; cesty vy&#x161;&#x161;&#xED;ch obt&#xED;&#x17E;nost&#xED; jsou ji&#x161;t&#x11B;ny borh&#xE1;ky. Sk&#xE1;ly dosahuj&#xED; v&#xFD;&#x161;ky 20 metr&#x16F;. N&#xE1;stupy jsou ozna&#x10D;eny &#x161;ipkou." id="3"/><marker name="Sk&#xE1;ly u Vysok&#xE9;ho vodop&#xE1;du" lat="50.114860" lng="17.206600" type="skala" popis="Jedn&#xE1; se o okrajovou sk&#xE1;lu tvo&#x159;enou krystalickou b&#x159;idlic&#xED;. P&#x11B;t cest do 5. stupn&#x11B; obt&#xED;&#x17E;nosti, v&#xFD;&#x161;ka cest do 40 metr&#x16F;." id="4"/><marker name="Vysok&#xFD; vodop&#xE1;d" lat="50.111280" lng="17.206430" type="led" popis="V zim&#x11B; se zde pravideln&#x11B; vytv&#xE1;&#x159;&#xED; ledov&#xE1; kask&#xE1;da se sklonem do 70&#xB0; a d&#xE9;lkou 20 metr&#x16F; a dva rampouchy se sklonem do 90&#xB0; a d&#xE9;lkou do 8 metr&#x16F;. Lezen&#xED; povoleno od 1.11. do 28.2. po souhlasu HO Jesen&#xED;k. Maxim&#xE1;ln&#x11B; v&#x161;ak 6 lid&#xED; denn&#x11B;." id="5"/><marker name="Krav&#xED; sk&#xE1;ly" lat="50.418490" lng="16.879800" type="skala" popis="Oblast tvo&#x159;&#xED; okrajov&#xE9; sk&#xE1;ly z v&#x11B;t&#x161;inou pevn&#xE9; ruly, dosahuj&#xED;c&#xED; v&#xFD;&#x161;ky 30 metr&#x16F;. Poskytuj&#xED; lezen&#xED; p&#x159;ev&#xE1;&#x17E;n&#x11B; v kolm&#xFD;ch plotn&#xE1;ch. Cesty jsou ji&#x161;t&#x11B;ny borh&#xE1;ky. N&#xE1;stupy jsou ozna&#x10D;eny &#x161;ipkou." id="6"/><marker name="&#x160;af&#xE1;&#x159;ova sk&#xE1;la" lat="50.409030" lng="16.895100" type="skala" popis="Skaln&#xED; oblast tvo&#x159;&#xED; mohutn&#xE1; okrajov&#xE1; sk&#xE1;la s mnoha p&#x159;evisy, kter&#xE1; je z vesm&#x11B;s pevn&#xE9; ruly. Cesty jsou ji&#x161;t&#x11B;ny borh&#xE1;ky. Sk&#xE1;la dosahuje v&#xFD;&#x161;ky do 45 metr&#x16F;. N&#xE1;stupy jsou ozna&#x10D;eny &#x161;ipkami. Vrcholov&#xE1; kn&#xED;&#x17E;ka je um&#xED;st&#x11B;na na prvn&#xED;m &#x161;tandu cesty &#x160;af&#xE1;&#x159;ka." id="7"/><marker name="Bleskovec" lat="50.236070" lng="17.284490" type="skala" popis="Oblast tvo&#x159;&#xED; skaln&#xED; h&#x159;eb&#xED;nek s n&#x11B;kolika v&#xFD;razn&#xFD;mi pil&#xED;&#x159;i a jehlou. Sk&#xE1;ly jsou z kvarcitu a poskytuj&#xED; kr&#xE1;sn&#xE9; lezen&#xED; v kolm&#xFD;ch plotn&#xE1;ch a p&#x159;evisech. Cesty jsou ji&#x161;t&#x11B;ny borh&#xE1;ky dle popisu. Na doji&#x161;t&#x11B;n&#xED; nutn&#xE9; vyjimateln&#xE9; jist&#xED;c&#xED; prost&#x159;edky." id="8"/><marker name="Brann&#xE1; - &#xDA;dol&#xED; k Ostru&#x17E;n&#xE9;" lat="50.156150" lng="17.020710" type="skala" popis="Oblast je tvo&#x159;ena &#x159;adou okrajov&#xFD;ch st&#x11B;n a skal z krystalick&#xE9; b&#x159;idlice nal&#xE9;zaj&#xED;c&#xED;ch se na prav&#xE9;m b&#x159;ehu potoka Brann&#xE1;. Sk&#xE1;la je m&#xED;sty zv&#x11B;tral&#xE1; a zarostl&#xE1;. Sk&#xE1;ly jsou ji&#x161;t&#x11B;ny pouze p&#x16F;vodn&#xED;m ji&#x161;t&#x11B;n&#xED;m, doporu&#x10D;uje se p&#x159;i v&#xFD;stupech pou&#x17E;&#xED;vat p&#x159;ilbu." id="9"/><marker name="Brann&#xE1;" lat="50.147800" lng="17.012690" type="skala" popis="Oblast je tvo&#x159;ena okrajovou st&#x11B;nou z krystalick&#xE9; b&#x159;idlice. Sk&#xE1;la je m&#xED;sty zv&#x11B;tral&#xE1; a zarostl&#xE1;. Je zde deset neji&#x161;t&#x11B;n&#xFD;ch cest 3. &#x2013; 5. stupn&#x11B; ur&#x10D;en&#xFD;ch p&#x159;edev&#x161;&#xED;m pro zimn&#xED; lezen&#xED;." id="10"/><marker name="Dra&#x10D;&#xED; Tlama" lat="16.000000" lng="50.000000" type="skala" popis="Oblast tvo&#x159;&#xED; um&#x11B;le vyt&#x11B;&#x17E;en&#xE1; jeskyn&#x11B; a jedna st&#x11B;na se st&#x159;echovit&#xFD;m p&#x159;evisem. Cesty p&#x159;ev&#xE1;&#x17E;n&#x11B; vy&#x161;&#x161;&#xED; obt&#xED;&#x17E;nosti a bouldrov&#xE9;ho charakteru. Mo&#x17E;n&#xE9; i drytoolov&#xE9; lezen&#xED;. " id="44"/><marker name="Brann&#xE1; - &#xDA;dol&#xED; k Jind&#x159;ichovu" lat="50.141080" lng="17.011060" type="skala" popis="Oblast je tvo&#x159;ena &#x159;adou okrajov&#xFD;ch st&#x11B;n a skal z krystalick&#xE9; b&#x159;idlice nal&#xE9;zaj&#xED;c&#xED;ch se na prav&#xE9;m b&#x159;ehu potoka Brann&#xE1;. Sk&#xE1;la je m&#xED;sty zv&#x11B;tral&#xE1; a zarostl&#xE1;. Sk&#xE1;ly jsou ji&#x161;t&#x11B;ny pouze p&#x16F;vodn&#xED;m ji&#x161;t&#x11B;n&#xED;m, doporu&#x10D;uje se p&#x159;i v&#xFD;stupech pou&#x17E;&#xED;vat p&#x159;ilbu." id="11"/><marker name="Brann&#xE1; - Nov&#xE9; Losiny" lat="50.116890" lng="17.005080" type="skala" popis="Okrajov&#xE1; sk&#xE1;la a t&#x159;i skaln&#xED; pil&#xED;&#x159;e tvo&#x159;en&#xE9; ortorulou. &#x10C;trn&#xE1;ct neji&#x161;t&#x11B;n&#xFD;ch cest klasifikace 3. &#x2013; 5. stupn&#x11B;." id="12"/><marker name="&#x10C;ertovy kameny" lat="50.245567" lng="17.235800" type="skala" popis="Oblast se skl&#xE1;d&#xE1; z n&#x11B;kolika v&#x11B;&#x17E;&#xED; a okrajov&#xE9; st&#x11B;ny, je tvo&#x159;ena pevn&#xFD;m pegmatitem a poskytuje lezen&#xED; p&#x159;edev&#x161;&#xED;m v plotn&#xE1;ch a kolm&#xFD;ch st&#x11B;n&#xE1;ch. V&#xFD;&#x161;ka st&#x11B;n dosahuje 30 metr&#x16F;, cesty jsou ji&#x161;t&#x11B;ny kruhy a borh&#xE1;ky dle popisu. Vrcholy Pekeln&#xED;ku a B&#x11B;l&#xE1;ku jsou osazeny vrcholov&#xFD;mi knihami." id="13"/><marker name="Josefovsk&#xE9; sk&#xE1;ly" lat="50.149730" lng="17.058760" type="skala" popis="Oblast je tvo&#x159;ena pevnou ortorulou a poskytuje p&#x159;ev&#xE1;&#x17E;n&#x11B; plotnov&#xE9; lezen&#xED;. Cesty jsou ji&#x161;t&#x11B;ny borh&#xE1;ky a kruhy. V&#xFD;&#x161;ka do 20 metr&#x16F;." id="14"/><marker name="Kober&#x161;tejn" lat="50.204180" lng="17.326230" type="skala" popis="Sk&#xE1;ly jsou tvo&#x159;eny b&#x159;idlic&#xED; prorostlou k&#x159;emenem. Poskytuj&#xED; lezen&#xED; v p&#x159;ev&#xE1;&#x17E;n&#x11B; kolm&#xFD;ch st&#x11B;n&#xE1;ch s n&#x11B;kolika p&#x159;evisy. Cesty jsou ji&#x161;t&#x11B;ny borh&#xE1;ky a kruhy. Na v&#x11B;&#x17E;i Lesn&#xED; mu&#x17E; je um&#xED;st&#x11B;na vrcholov&#xE1; kn&#xED;&#x17E;ka." id="15"/><marker name="Li&#x161;&#x10D;&#xED; sk&#xE1;la" lat="50.385340" lng="16.923470" type="skala" popis="Oblast je tvo&#x159;ena okrajovou sk&#xE1;lou z pevn&#xE9; ortoruly a dosahuj&#xED;c&#xED;ch v&#xFD;&#x161;ky do 10 metr&#x16F;. Poskytuje lezen&#xED; p&#x159;ev&#xE1;&#x17E;n&#x11B; v kolm&#xFD;ch hladk&#xFD;ch plotn&#xE1;ch. Cesty jsou ji&#x161;t&#x11B;ny borh&#xE1;ky. Na doji&#x161;t&#x11B;n&#xED; leh&#x10D;&#xED;ch cest jsou nutn&#xE9; vkl&#xED;n&#x11B;nce." id="16"/><marker name="Ob&#x159;&#xED; sk&#xE1;ly" lat="50.198720" lng="17.099660" type="skala" popis="Sk&#xE1;ly jsou tvo&#x159;eny pevnou krystalickou b&#x159;idlic&#xED; a poskytuj&#xED; lezen&#xED; p&#x159;edev&#x161;&#xED;m v kolm&#xFD;ch &#x10D;lenit&#xFD;ch plotn&#xE1;ch. Cesty dosahuj&#xED; v&#xFD;&#x161;ky do 30 metr&#x16F; a jsou ji&#x161;t&#x11B;ny pouze fixn&#xED;m ji&#x161;t&#x11B;n&#xED;m dle popisu." id="17"/><marker name="Ond&#x159;ejovice" lat="50.254660" lng="17.355260" type="skala" popis="Oblast tvo&#x159;&#xED; kolm&#xE9; hladk&#xE9; st&#x11B;ny, m&#xED;sty s vo&#x161;tinami, a siln&#x11B; p&#x159;evisl&#xE1; st&#x159;echa s n&#xE1;ro&#x10D;n&#x11B;j&#x161;&#xED;mi cestami. Cesty jsou vesm&#x11B;s zaji&#x161;t&#x11B;ny borh&#xE1;ky a v&#xFD;&#x161;ka st&#x11B;n je do 8 metr&#x16F;. Vzhledem k tomu, &#x17E;e se jedn&#xE1; o b&#xFD;val&#xFD; lom, d&#xE1;vejte pozor na voln&#xE9; bloky! (d&#xE1;le popsan&#xE9; cesty, by m&#x11B;ly b&#xFD;t dostate&#x10D;n&#x11B; vy&#x10D;i&#x161;t&#x11B;ny, ale i p&#x159;esto je nutn&#xE1; zv&#xFD;&#x161;en&#xE1; opatrnost)." id="18"/><marker name="Ostru&#x17E;n&#xE1;" lat="50.180800" lng="17.050520" type="skala" popis=" Sk&#xE1;lu tvo&#x159;&#xED; dva v&#xFD;razn&#xE9; pil&#xED;&#x159;e a n&#x11B;kolik men&#x161;&#xED;ch skalek. Lezen&#xED; p&#x159;ev&#xE1;&#x17E;n&#x11B; v kolm&#xFD;ch st&#x11B;n&#xE1;ch s n&#x11B;kolika p&#x159;evisy. V&#xFD;&#x161;ka st&#x11B;n do 15 metr&#x16F;. Cesty m&#xED;sty zaji&#x161;t&#x11B;ny borh&#xE1;ky." id="19"/><marker name="Pas&#xE1;k" lat="50.137790" lng="17.024990" type="skala" popis="Sk&#xE1;la je tvo&#x159;ena krystalickou b&#x159;idlic&#xED;, m&#xED;sty zv&#x11B;tralou. P&#x159;i v&#xFD;stupech se doporu&#x10D;uje pou&#x17E;it&#xED; p&#x159;ilby. Cesty poskytuj&#xED; p&#x159;ev&#xE1;&#x17E;n&#x11B; voln&#xE9; lezen&#xED; v kolm&#xFD;ch st&#x11B;n&#xE1;ch a p&#x159;evisech, ale i technick&#xE9; lezen&#xED; ve st&#x159;ech&#xE1;ch. Je zak&#xE1;z&#xE1;no tvo&#x159;it nov&#xE9; cesty a l&#xE9;zt na v&#x11B;&#x17E;i&#x10D;ku Pas&#xE1;k." id="20"/><marker name="&#x160;pi&#x10D;&#xE1;k" lat="50.285120" lng="17.250400" type="skala" popis="Skaln&#xED; oblast je tvo&#x159;ena krystalick&#xFD;m v&#xE1;pencem a poskytuje lezen&#xED; v kolm&#xFD;ch st&#x11B;n&#xE1;ch. Cesty jsou ji&#x161;t&#x11B;ny fixn&#xED;m ji&#x161;t&#x11B;n&#xED;m a dosahuj&#xED; v&#xFD;&#x161;ky 15 metr&#x16F;." id="21"/><marker name="B&#xED;l&#xE9; Kameny" lat="50.282250" lng="17.210970" type="skala" popis="N&#x11B;kolik cest do 5. stupn&#x11B; obt&#xED;&#x17E;nosti na vrcholov&#xFD;ch skal&#xE1;ch tvo&#x159;en&#xFD;ch krystalickou b&#x159;idlic&#xED;." id="22"/><marker name="P&#xED;&#x161;&#x165;ala" lat="50.294200" lng="17.137940" type="skala" popis="Skaln&#xED; oblast je tvo&#x159;ena skaln&#xED; v&#x11B;&#x17E;&#xED; z hrubozrnn&#xE9; &#x17E;uly. Sk&#xE1;la je pevn&#xE1; a poskytuje lezen&#xED; na t&#x159;en&#xED;, v&#x11B;t&#x161;inou v kolm&#xFD;ch hladk&#xFD;ch st&#x11B;n&#xE1;ch. Cesty jsou ji&#x161;t&#x11B;ny kruhy a borh&#xE1;ky. Sk&#xE1;la dosahuje v&#xFD;&#x161;ky do 15 metr&#x16F;. N&#xE1;stupy jsou ozna&#x10D;eny &#x161;ipkou. Na vrcholu v&#x11B;&#x17E;e je um&#xED;st&#x11B;na vrcholov&#xE1; kn&#xED;&#x17E;ka." id="23"/><marker name="&#x158;eznick&#xE9; sk&#xE1;ly" lat="50.276710" lng="17.028200" type="skala" popis="Sk&#xE1;ly jsou tvo&#x159;eny st&#x11B;nami a v&#x11B;&#x17E;kami z v&#x11B;t&#x161;inou pevn&#xE9; ruly a poskytuj&#xED; lezen&#xED; p&#x159;edev&#x161;&#xED;m v hladk&#xFD;ch plotn&#xE1;ch. Cesty jsou ji&#x161;t&#x11B;ny borh&#xE1;ky dle popisu. Na doji&#x161;t&#x11B;n&#xED; jsou nutn&#xE9; vyj&#xED;mateln&#xE9; jist&#xED;c&#xED; prost&#x159;edky. Sk&#xE1;ly dosahuj&#xED; v&#xFD;&#x161;ky do 25 metr&#x16F;." id="24"/><marker name="Smoln&#xFD; vrch  (Venu&#x161;iny misky)" lat="50.335350" lng="17.146960" type="skala" popis="Skaln&#xED; oblast je tvo&#x159;ena skaln&#xED;mi v&#x11B;&#x17E;emi a n&#x11B;kolika st&#x11B;nkami z hrubozrnn&#xE9; &#x17E;uly. Sk&#xE1;la je pevn&#xE1; a poskytuje lezen&#xED; na t&#x159;en&#xED;, v&#x11B;t&#x161;inou v kolm&#xFD;ch hladk&#xFD;ch st&#x11B;n&#xE1;ch. Cesty jsou ji&#x161;t&#x11B;ny kruhy a borh&#xE1;ky. Sk&#xE1;ly dosahuj&#xED; v&#xFD;&#x161;ky do 15 metr&#x16F;. N&#xE1;stupy jsou ozna&#x10D;eny &#x161;ipkou. Vrchol Borov&#xE9; v&#x11B;&#x17E;e je osazen vrcholovou kn&#xED;&#x17E;kou." id="25"/><marker name="Smr&#x10D;n&#xED;k" lat="50.235621" lng="17.125673" type="skala" popis="Sk&#xE1;la je tvo&#x159;ena kvarcitem a poskytuje lezen&#xED; po li&#x161;t&#xE1;ch v&#x11B;t&#x161;inou v p&#x159;evisl&#xFD;ch st&#x11B;n&#xE1;ch dosahuj&#xED;c&#xED;ch v&#xFD;&#x161;ky do 20 metr&#x16F;." id="26"/><marker name="Skalka pod Smr&#x10D;n&#xED;kem" lat="50.233920" lng="17.131680" type="skala" popis="Sk&#xE1;la je tvo&#x159;ena kvarcitem a poskytuje lezen&#xED; po li&#x161;t&#xE1;ch v&#x11B;t&#x161;inou v p&#x159;evisl&#xFD;ch st&#x11B;n&#xE1;ch dosahuj&#xED;c&#xED;ch v&#xFD;&#x161;ky do 20 metr&#x16F;." id="27"/><marker name="Sk&#xE1;la pod lomem" lat="50.232210" lng="17.125970" type="skala" popis="Sk&#xE1;la je tvo&#x159;ena kvarcitem a poskytuje lezen&#xED; po li&#x161;t&#xE1;ch v&#x11B;t&#x161;inou v p&#x159;evisl&#xFD;ch st&#x11B;n&#xE1;ch dosahuj&#xED;c&#xED;ch v&#xFD;&#x161;ky do 20 metr&#x16F;." id="28"/><marker name="T&#x159;i kameny" lat="50.104980" lng="17.047830" type="skala" popis="Sk&#xE1;ly jsou tvo&#x159;eny krystalickou b&#x159;idlic&#xED;, m&#xED;sty rozv&#x11B;tralou. Cesty poskytuj&#xED; lezen&#xED; p&#x159;edev&#x161;&#xED;m v kolm&#xFD;ch st&#x11B;n&#xE1;ch, dosahuj&#xED; v&#xFD;&#x161;ky 20 metr&#x16F; a cesty jsou ji&#x161;t&#x11B;ny borh&#xE1;ky dle popisu." id="29"/><marker name="Princovy sk&#xE1;ly" lat="50.305250" lng="17.091827" type="skala" popis="Oblast je tvo&#x159;ena sk&#xE1;lami z hrubozrnn&#xE9; &#x17E;uly, cesty jsou ji&#x161;t&#x11B;ny borh&#xE1;ky, hod&#xED; se v&#x161;ak i vyjimateln&#xE9; jist&#xED;c&#xED; prost&#x159;edky." id="30"/><marker name="&#x17D;ulov&#xE1;" lat="50.308430" lng="17.105680" type="boulder" popis="Sk&#xE1;ly z hrubozrnn&#xE9; &#x17E;uly. Cesty jsou boulderingov&#xE9;ho charakteru." id="31"/><marker name="Borov&#xFD; vrch" lat="50.314870" lng="17.113600" type="boulder" popis="Sk&#xE1;ly z hrubozrnn&#xE9; &#x17E;uly. Cesty jsou boulderingov&#xE9;ho charakteru." id="32"/><marker name="Sokol&#xED; sk&#xE1;ly u N&#xFD;znerova" lat="50.272290" lng="17.052880" type="skala" popis="Mohutn&#xE1; okrajov&#xE1; sk&#xE1;la s &#x159;adou men&#x161;&#xED;ch pil&#xED;&#x159;&#x16F; a skaln&#xED; v&#x11B;&#x17E;&#xED; z l&#xE1;mav&#xE9; ruly dosahuj&#xED;c&#xED; v&#xFD;&#x161;ky 45 metr&#x16F;. Asi 1,5 hodiny z N&#xFD;znerova po modr&#xE9;, nebo zelen&#xE9; zna&#x10D;ce. Dvacet cest 3.-5. stupn&#x11B; obt&#xED;&#x17E;nosti." id="33"/><marker name="Um&#x11B;l&#xE1; lezeck&#xE1; st&#x11B;na Javorn&#xED;k" lat="50.391320" lng="17.004770" type="stena" popis="Od za&#x10D;&#xE1;tku z&#xE1;&#x159;&#xED; do konce kv&#x11B;tna lezeme ve velk&#xE9; t&#x11B;locvi&#x10D;n&#x11B; Z&#x160; Javorn&#xED;k v pond&#x11B;lky 20:00 - 23:00, st&#x159;edy 21:00 - 00:00 a ka&#x17E;d&#xE9; p&#xE1;tky 20:00 - 23:00." id="34"/><marker name="Um&#x11B;l&#xE1; lezeck&#xE1; st&#x11B;na Jesen&#xED;k" lat="50.230546" lng="17.202741" type="stena" popis="Horolezeckou st&#x11B;nu spravuje HO Jesen&#xED;k &lt;br /&gt; Otv&#xED;rac&#xED; doba: &lt;br/&gt; Pond&#x11B;l&#xED; 18:00 - 20:00 &lt;br /&gt;St&#x159;eda 18:00 - 20:00 &lt;br /&gt; &#x10C;tvrtek 18:00 - 20:00 &lt;br /&gt;&lt;br /&gt;Parametry st&#x11B;ny:&lt;br /&gt; V&#xFD;&#x161;ka: 7,60 m &lt;br /&gt; &#x160;&#xED;&#x159;ka: 7,20 m&lt;br /&gt; Strop: 4,30 m x 5,00 m &lt;br /&gt;Sou&#x10D;asn&#x11B; lezouc&#xED;ch: 7" id="35"/><marker name="Venkovn&#xED; um&#x11B;l&#xE1; lezeck&#xE1; st&#x11B;na" lat="50.273650" lng="17.225960" type="stena" popis="www.adrenalin-park.cz" id="36"/><marker name="Sedm skal" lat="50.294710" lng="17.166380" type="boulder" popis="Skaln&#xED; oblast je tvo&#x159;ena t&#x159;emi mal&#xFD;mi v&#x11B;&#x17E;i&#x10D;kami a n&#x11B;kolika balvany z hrubozrnn&#xE9; &#x17E;uly. Sk&#xE1;la je pevn&#xE1; a poskytuje p&#x159;edev&#x161;&#xED;m cesty boulderingov&#xE9;ho charakteru do v&#xFD;&#x161;ky 8 metr&#x16F;. Na vrcholu Hlavn&#xED; v&#x11B;&#x17E;i&#x10D;ky je um&#xED;st&#x11B;na vrcholov&#xE1; kn&#xED;&#x17E;ka. " id="37"/><marker name="Studen&#xFD; Zejf" lat="50.269450" lng="17.264710" type="boulder" popis="Oblast je tvo&#x159;ena dv&#x11B;ma v&#x11B;&#x17E;kami a n&#x11B;kolika balvany z pegmatitu, p&#x159;&#xED;padn&#x11B; b&#x159;idlice. Cesty dosahuj&#xED; v&#xFD;&#x161;ky do 7 metr&#x16F; a jsou ur&#x10D;eny p&#x159;edev&#x161;&#xED;m za&#x10D;&#xED;naj&#xED;c&#xED;m lezc&#x16F;m. Pokud nen&#xED; uvedeno jinak byly cesty p&#x159;elezeny v letech 1970-75 m&#xED;stn&#xED;mi lezci (R. Suchanec s druhy). " id="38"/><marker name="Such&#xFD; vrch (K&#xF3;ta 436)" lat="50.298310" lng="17.125830" type="boulder" popis="Oblast je tvo&#x159;ena n&#x11B;kolika v&#x11B;&#x17E;i&#x10D;kami a balvany z hrubozrnn&#xE9; &#x17E;uly s v&#xFD;&#x161;kou do 8 metr&#x16F;. Jedn&#xE1; se o bouldrovou lokalitu a je zak&#xE1;z&#xE1;no osazov&#xE1;n&#xED; fixn&#xED;ho ji&#x161;t&#x11B;n&#xED;. Vzhledem k jedine&#x10D;nosti oblasti je omezeno pou&#x17E;&#xED;v&#xE1;n&#xED; magn&#xE9;zia. Star&#x161;&#xED; v&#xFD;stupy provedli v roce 1970 &#x10D;lenov&#xE9; HO Jesen&#xED;k." id="39"/><marker name="V&#x11B;trn&#xE1; h&#x16F;rka" lat="50.332920" lng="17.137060" type="boulder" popis="Oblast je tvo&#x159;ena n&#x11B;kolika v&#x11B;&#x17E;i&#x10D;kami a balvany. Sk&#xE1;la poskytuje p&#x159;edev&#x161;&#xED;m lezen&#xED; na t&#x159;en&#xED; a dosahuje v&#xFD;&#x161;ky do 6 metr&#x16F;. Cesty jsou boulderingov&#xE9;ho charakteru. " id="40"/><marker name="&#x17D;ulov&#xFD; vrch" lat="50.276630" lng="17.129590" type="boulder" popis="Jedn&#xE1; se bouldrovou lokalitu s velk&#xFD;m mno&#x17E;stv&#xED;m balvan&#x16F; a men&#x161;&#xED;ch v&#x11B;&#x17E;i&#x10D;ek ze st&#x159;edn&#x11B; a&#x17E; jemn&#x11B; zrnit&#xE9; &#x17E;uly do v&#xFD;&#x161;ky 5 metr&#x16F;. Vesm&#x11B;s se jedn&#xE1; o technicko-silov&#xE9; lezen&#xED; v hladk&#xFD;ch hran&#xE1;ch a plotn&#xE1;ch. " id="41"/><marker name="Strm&#xFD; vrch" lat="16.000000" lng="50.000000" type="skala" popis="Oblast je tvo&#x159;ena rulov&#xFD;mi masivy do v&#xFD;&#x161;ky 25 metr&#x16F;. Sk&#xE1;la je m&#xED;sty l&#xE1;mav&#xE1; a na doji&#x161;t&#x11B;n&#xED; jsou nutn&#xE9; vyjimateln&#xE9; jist&#xED;c&#xED; prost&#x159;edky." id="45"/><marker name="Brann&#xE1; - Podz&#xE1;m&#x10D;&#xED;" lat="17.015584" lng="50.150599" type="skala" popis="Oblast je tvo&#x159;ena okrajovou st&#x11B;nou, p&#x159;eru&#x161;enou terasou.  Sk&#xE1;la je vcelku pevn&#xE1;, ale zarostl&#xE1;. V&#xFD;stupy jsou vhodn&#xE9; k zimn&#xED;mu lezen&#xED; a jsou ji&#x161;t&#x11B;ny p&#x16F;vodn&#xED;mi skobami, doporu&#x10D;uje se p&#x159;i v&#xFD;stupech pou&#x17E;&#xED;vat p&#x159;ilbu." id="43"/><marker name="Sokol&#xED; vrch" lat="17.000000" lng="50.000000" type="boulder" popis="Oblast je tvo&#x159;en&#xE1; balvany z hrubozrnn&#xE9; &#x17E;uly a poskytuje p&#x159;edev&#x161;&#xED;m technick&#xE9; a silovotechnick&#xE9; lezen&#xED; v hladk&#xFD;ch plotn&#xE1;ch a na obl&#xFD;ch hran&#xE1;ch." id="46"/><marker name="Vysok&#xFD; k&#xE1;men" lat="16.000000" lng="50.000000" type="skala" popis="Oblast tvo&#x159;&#xED; n&#x11B;kolik mohutn&#xFD;ch masiv&#x16F; z pevn&#xE9; ruly a poskytuje p&#x159;edev&#x161;&#xED;m technick&#xE9; lezen&#xED; v kolm&#xFD;ch st&#x11B;n&#xE1;ch a sp&#xE1;r&#xE1;ch. Nen&#xED; povoleno p&#x159;id&#xE1;vat trvale jist&#xED;c&#xED; prost&#x159;edky. " id="47"/></markers>
